城市,站点名称,lng,lat,id,name,正反线路
广州,西塱,113.22665366084165,23.068138134411758,BV10024397,地铁1号线(西塱--广州东站),1
广州,坑口,113.2271730697168,23.081573783272855,BV10021881,地铁1号线(西塱--广州东站),1
广州,花地湾,113.22870537148827,23.089748291208767,BV10024404,地铁1号线(西塱--广州东站),1
广州,芳村,113.2303784246444,23.10128141365814,BV10013608,地铁1号线(西塱--广州东站),1
广州,黄沙,113.23453220953868,23.11321036550148,BV10015729,地铁1号线(西塱--广州东站),1
广州,长寿路,113.23694729351048,23.121085941937007,BV10024403,地铁1号线(西塱--广州东站),1
广州,陈家祠,113.24111531635687,23.128408831725977,BV10015239,地铁1号线(西塱--广州东站),1
广州,西门口,113.25050497132116,23.127900560632206,BV10024402,地铁1号线(西塱--广州东站),1
广州,公园前,113.25898570973801,23.12812417976481,BV10016207,地铁1号线(西塱--广州东站),1
广州,农讲所,113.2702627540189,23.129292292928756,BV10013932,地铁1号线(西塱--广州东站),1
广州,烈士陵园,113.28031122054496,23.12936219446934,BV10013935,地铁1号线(西塱--广州东站),1
广州,东山口,113.29000644606928,23.126625851288647,BV10021603,地铁1号线(西塱--广州东站),1
广州,杨箕,113.30348573083472,23.13075892909041,BV10024379,地铁1号线(西塱--广州东站),1
广州,体育西路,113.31608627470375,23.133735498355612,BV10014336,地铁1号线(西塱--广州东站),1
广州,体育中心,113.32294487754352,23.1375528778664,BV10014526,地铁1号线(西塱--广州东站),1
广州,广州东站,113.31998095114717,23.152876483586795,BV10024357,地铁1号线(西塱--广州东站),1
广州,广州东站,113.31997695931682,23.1528774908218,BV10024357,地铁1号线(广州东站--西塱),2
广州,体育中心,113.32294487754352,23.1375528778664,BV10014526,地铁1号线(广州东站--西塱),2
广州,体育西路,113.31608627470375,23.133735498355612,BV10014336,地铁1号线(广州东站--西塱),2
广州,杨箕,113.30348573083472,23.13075892909041,BV10024379,地铁1号线(广州东站--西塱),2
广州,东山口,113.29000644606928,23.126625851288647,BV10021603,地铁1号线(广州东站--西塱),2
广州,烈士陵园,113.28031122054496,23.12936219446934,BV10013935,地铁1号线(广州东站--西塱),2
广州,农讲所,113.2702627540189,23.129292292928756,BV10013932,地铁1号线(广州东站--西塱),2
广州,公园前,113.25898570973801,23.12812417976481,BV10016207,地铁1号线(广州东站--西塱),2
广州,西门口,113.25050497132116,23.127900560632206,BV10024402,地铁1号线(广州东站--西塱),2
广州,陈家祠,113.24111531635687,23.128408831725977,BV10015239,地铁1号线(广州东站--西塱),2
广州,长寿路,113.23694729351048,23.121085941937007,BV10024403,地铁1号线(广州东站--西塱),2
广州,黄沙,113.23453220953868,23.11321036550148,BV10015729,地铁1号线(广州东站--西塱),2
广州,芳村,113.2303784246444,23.10128141365814,BV10013608,地铁1号线(广州东站--西塱),2
广州,花地湾,113.22870537148827,23.089748291208767,BV10024404,地铁1号线(广州东站--西塱),2
广州,坑口,113.2271730697168,23.081573783272855,BV10021881,地铁1号线(广州东站--西塱),2
广州,西塱,113.22665366084165,23.068138134411758,BV10024397,地铁1号线(广州东站--西塱),2
广州,广州南站,113.26380120868411,22.991712992143004,[],地铁2号线(夜班线)(广州南站--嘉禾望岗),1
广州,洛溪,113.29329828998236,23.045570757725876,[],地铁2号线(夜班线)(广州南站--嘉禾望岗),1
广州,昌岗,113.27154675730607,23.093336848732434,[],地铁2号线(夜班线)(广州南站--嘉禾望岗),1
广州,公园前,113.25898570973801,23.12812417976481,[],地铁2号线(夜班线)(广州南站--嘉禾望岗),1
广州,广州火车站,113.25127616359009,23.150815237160234,[],地铁2号线(夜班线)(广州南站--嘉禾望岗),1
广州,嘉禾望岗,113.28387853343477,23.240072526372174,[],地铁2号线(夜班线)(广州南站--嘉禾望岗),1
广州,嘉禾望岗,113.28387853343477,23.240072526372174,BV10024352,地铁2号线(嘉禾望岗--广州南站),2
广州,黄边,113.28201537022935,23.224265327077923,BV10016172,地铁2号线(嘉禾望岗--广州南站),2
广州,江夏,113.27809655335578,23.21392980462275,BV10014251,地铁2号线(嘉禾望岗--广州南站),2
广州,萧岗,113.27534697545642,23.201216487066024,BV10024423,地铁2号线(嘉禾望岗--广州南站),2
广州,白云文化广场,113.27025851986042,23.19221897248196,BV10024422,地铁2号线(嘉禾望岗--广州南站),2
广州,白云公园,113.26562767810664,23.184264908229903,BV10024421,地铁2号线(嘉禾望岗--广州南站),2
广州,飞翔公园,113.2583032399534,23.171494498734546,BV10024420,地铁2号线(嘉禾望岗--广州南站),2
广州,三元里,113.25152331615624,23.162069787983533,BV10014446,地铁2号线(嘉禾望岗--广州南站),2
广州,广州火车站,113.25127616359009,23.150815237160234,BV10015177,地铁2号线(嘉禾望岗--广州南站),2
广州,越秀公园,113.25603752498763,23.142708783148397,BV10014173,地铁2号线(嘉禾望岗--广州南站),2
广州,纪念堂,113.25810183094792,23.134854937222293,BV10024419,地铁2号线(嘉禾望岗--广州南站),2
广州,公园前,113.25898570973801,23.12812417976481,BV10016207,地铁2号线(嘉禾望岗--广州南站),2
广州,海珠广场,113.26001471961038,23.117477928805613,BV10018597,地铁2号线(嘉禾望岗--广州南站),2
广州,市二宫,113.2645577201178,23.108678525182984,BV10019502,地铁2号线(嘉禾望岗--广州南站),2
广州,江南西,113.26858249446373,23.09989688187647,BV10024418,地铁2号线(嘉禾望岗--广州南站),2
广州,昌岗,113.27154675730607,23.093336848732434,BV10024399,地铁2号线(嘉禾望岗--广州南站),2
广州,江泰路,113.27522795987865,23.08491354368632,BV10019562,地铁2号线(嘉禾望岗--广州南站),2
广州,东晓南,113.28881297136702,23.07400249636271,BV10024417,地铁2号线(嘉禾望岗--广州南站),2
广州,南洲,113.29248329152338,23.066545066452754,BV10024416,地铁2号线(嘉禾望岗--广州南站),2
广州,洛溪,113.29329828998236,23.045570757725876,BV10024415,地铁2号线(嘉禾望岗--广州南站),2
广州,南浦,113.28779720821112,23.035616418469484,BV10024414,地铁2号线(嘉禾望岗--广州南站),2
广州,会江,113.28104881718038,23.015752232287458,BV10024413,地铁2号线(嘉禾望岗--广州南站),2
广州,石壁,113.27263099165447,22.996859081672547,BV10024412,地铁2号线(嘉禾望岗--广州南站),2
广州,广州南站,113.26380120868411,22.991712992143004,BV10019725,地铁2号线(嘉禾望岗--广州南站),2
广州,天河客运站,113.3382375951856,23.173213192915796,BV10014278,地铁3号线(天河客运站--番禺广场),1
广州,五山,113.34633368334596,23.15536581900087,BV10015976,地铁3号线(天河客运站--番禺广场),1
广州,华师,113.3398645399118,23.14283905613761,BV10014714,地铁3号线(天河客运站--番禺广场),1
广州,岗顶,113.33414708063296,23.13744167861191,BV10014530,地铁3号线(天河客运站--番禺广场),1
广州,石牌桥,113.32668530652994,23.135711463363133,BV10014528,地铁3号线(天河客运站--番禺广场),1
广州,体育西路,113.31608627470375,23.133735498355612,BV10014336,地铁3号线(天河客运站--番禺广场),1
广州,珠江新城,113.31579068596793,23.121895847603593,BV10024361,地铁3号线(天河客运站--番禺广场),1
广州,广州塔,113.31819861226931,23.108978564956686,BV10015731,地铁3号线(天河客运站--番禺广场),1
广州,客村,113.31491903983192,23.098811007420853,BV10014653,地铁3号线(天河客运站--番禺广场),1
广州,大塘,113.31626351945631,23.08059310166103,BV10018644,地铁3号线(天河客运站--番禺广场),1
广州,沥滘,113.31367038975372,23.05753180870739,BV10014515,地铁3号线(天河客运站--番禺广场),1
广州,厦滘,113.31542794077198,23.040644739029485,BV10024360,地铁3号线(天河客运站--番禺广场),1
广州,大石,113.31633445203684,23.020405753984647,BV10019878,地铁3号线(天河客运站--番禺广场),1
广州,汉溪长隆,113.32474481435536,22.995570430297853,BV10024359,地铁3号线(天河客运站--番禺广场),1
广州,市桥,113.35624498289613,22.95234568072034,BV10024358,地铁3号线(天河客运站--番禺广场),1
广州,番禺广场,113.38013501358743,22.938064240176544,BV10019880,地铁3号线(天河客运站--番禺广场),1
广州,番禺广场,113.38013501358743,22.938064240176544,BV10019880,地铁3号线(番禺广场--天河客运站),2
广州,市桥,113.35624498289613,22.95234568072034,BV10024358,地铁3号线(番禺广场--天河客运站),2
广州,汉溪长隆,113.32474481435536,22.995570430297853,BV10024359,地铁3号线(番禺广场--天河客运站),2
广州,大石,113.31633445203684,23.020405753984647,BV10019878,地铁3号线(番禺广场--天河客运站),2
广州,厦滘,113.31542794077198,23.040644739029485,BV10024360,地铁3号线(番禺广场--天河客运站),2
广州,沥滘,113.31367038975372,23.05753180870739,BV10014515,地铁3号线(番禺广场--天河客运站),2
广州,大塘,113.31626351945631,23.08059310166103,BV10018644,地铁3号线(番禺广场--天河客运站),2
广州,客村,113.31491903983192,23.098811007420853,BV10014653,地铁3号线(番禺广场--天河客运站),2
广州,广州塔,113.31819861226931,23.108978564956686,BV10015731,地铁3号线(番禺广场--天河客运站),2
广州,珠江新城,113.31579068596793,23.121895847603593,BV10024361,地铁3号线(番禺广场--天河客运站),2
广州,体育西路,113.31608627470375,23.133735498355612,BV10014336,地铁3号线(番禺广场--天河客运站),2
广州,石牌桥,113.32668530652994,23.135711463363133,BV10014528,地铁3号线(番禺广场--天河客运站),2
广州,岗顶,113.33414708063296,23.13744167861191,BV10014530,地铁3号线(番禺广场--天河客运站),2
广州,华师,113.3398645399118,23.14283905613761,BV10014714,地铁3号线(番禺广场--天河客运站),2
广州,五山,113.34633368334596,23.15536581900087,BV10015976,地铁3号线(番禺广场--天河客运站),2
广州,天河客运站,113.3382375951856,23.173213192915796,BV10014278,地铁3号线(番禺广场--天河客运站),2
广州,南沙客运港,113.60591728757325,22.76999417900992,BV10960125,地铁4号线(南沙客运港--黄村),1
广州,南横,113.58932854183756,22.750900653273547,BV10960126,地铁4号线(南沙客运港--黄村),1
广州,塘坑,113.56798866382888,22.756098619808494,BV10960127,地铁4号线(南沙客运港--黄村),1
广州,大涌,113.55086615589659,22.762049588916973,BV10960128,地铁4号线(南沙客运港--黄村),1
广州,广隆,113.53557879218906,22.775080368564915,BV10960129,地铁4号线(南沙客运港--黄村),1
广州,飞沙角,113.53560824364688,22.78478821919667,BV10960124,地铁4号线(南沙客运港--黄村),1
广州,金洲,113.53373016438479,22.79510424504543,BV10015821,地铁4号线(南沙客运港--黄村),1
广州,蕉门,113.52231059557008,22.803598041791584,BV10020680,地铁4号线(南沙客运港--黄村),1
广州,黄阁,113.51354614032218,22.827596978515263,BV10024371,地铁4号线(南沙客运港--黄村),1
广州,黄阁汽车城,113.5044652842466,22.83864233035849,BV10016576,地铁4号线(南沙客运港--黄村),1
广州,庆盛,113.48513281061868,22.86975941522638,BV10024370,地铁4号线(南沙客运港--黄村),1
广州,东涌,113.4735916836189,22.888296452271913,BV10019828,地铁4号线(南沙客运港--黄村),1
广州,低涌,113.47947198979082,22.922185419066334,BV10024369,地铁4号线(南沙客运港--黄村),1
广州,海傍,113.46997335755819,22.94223997421747,BV10024368,地铁4号线(南沙客运港--黄村),1
广州,石碁,113.45981398863155,22.9598375755212,BV10024367,地铁4号线(南沙客运港--黄村),1
广州,官桥,113.43765308469933,22.9849455630472,BV10023067,地铁4号线(南沙客运港--黄村),1
广州,新造,113.41020202768664,23.03072262540654,BV10024366,地铁4号线(南沙客运港--黄村),1
广州,大学城南,113.39503785903588,23.04584311065821,BV10024365,地铁4号线(南沙客运港--黄村),1
广州,大学城北,113.38027955224385,23.060466525584292,BV10024364,地铁4号线(南沙客运港--黄村),1
广州,官洲,113.37133746928171,23.06939535671148,BV10024363,地铁4号线(南沙客运港--黄村),1
广州,万胜围,113.37927850227527,23.10022545382646,BV10024362,地铁4号线(南沙客运港--黄村),1
广州,车陂南,113.38403942918157,23.118432941929484,BV10014566,地铁4号线(南沙客运港--黄村),1
广州,车陂,113.39002375000105,23.126962000137617,BV10014611,地铁4号线(南沙客运港--黄村),1
广州,黄村,113.40175009778974,23.134307638311867,BV10014561,地铁4号线(南沙客运港--黄村),1
广州,黄村,113.40175009778974,23.134307638311867,BV10014561,地铁4号线(黄村--南沙客运港),2
广州,车陂,113.39002375000105,23.126962000137617,BV10014611,地铁4号线(黄村--南沙客运港),2
广州,车陂南,113.38403942918157,23.118432941929484,BV10014566,地铁4号线(黄村--南沙客运港),2
广州,万胜围,113.37927850227527,23.10022545382646,BV10024362,地铁4号线(黄村--南沙客运港),2
广州,官洲,113.37133746928171,23.06939535671148,BV10024363,地铁4号线(黄村--南沙客运港),2
广州,大学城北,113.38027955224385,23.060466525584292,BV10024364,地铁4号线(黄村--南沙客运港),2
广州,大学城南,113.39503785903588,23.04584311065821,BV10024365,地铁4号线(黄村--南沙客运港),2
广州,新造,113.41020202768664,23.03072262540654,BV10024366,地铁4号线(黄村--南沙客运港),2
广州,官桥,113.43765308469933,22.9849455630472,BV10023067,地铁4号线(黄村--南沙客运港),2
广州,石碁,113.45981398863155,22.9598375755212,BV10024367,地铁4号线(黄村--南沙客运港),2
广州,海傍,113.46997335755819,22.94223997421747,BV10024368,地铁4号线(黄村--南沙客运港),2
广州,低涌,113.47947198979082,22.922185419066334,BV10024369,地铁4号线(黄村--南沙客运港),2
广州,东涌,113.4735916836189,22.888296452271913,BV10019828,地铁4号线(黄村--南沙客运港),2
广州,庆盛,113.48513281061868,22.86975941522638,BV10024370,地铁4号线(黄村--南沙客运港),2
广州,黄阁汽车城,113.5044652842466,22.83864233035849,BV10016576,地铁4号线(黄村--南沙客运港),2
广州,黄阁,113.51354614032218,22.827596978515263,BV10024371,地铁4号线(黄村--南沙客运港),2
广州,蕉门,113.52231059557008,22.803598041791584,BV10020680,地铁4号线(黄村--南沙客运港),2
广州,金洲,113.53373016438479,22.79510424504543,BV10015821,地铁4号线(黄村--南沙客运港),2
广州,飞沙角,113.53560824364688,22.78478821919667,BV10960124,地铁4号线(黄村--南沙客运港),2
广州,广隆,113.53557879218906,22.775080368564915,BV10960129,地铁4号线(黄村--南沙客运港),2
广州,大涌,113.55086615589659,22.762049588916973,BV10960128,地铁4号线(黄村--南沙客运港),2
广州,塘坑,113.56798866382888,22.756098619808494,BV10960127,地铁4号线(黄村--南沙客运港),2
广州,南横,113.58932854183756,22.750900653273547,BV10960126,地铁4号线(黄村--南沙客运港),2
广州,南沙客运港,113.60591728757325,22.76999417900992,BV10960125,地铁4号线(黄村--南沙客运港),2
广州,文冲,113.46359437959157,23.1063956315895,BV10021532,地铁5号线(文冲--滘口),1
广州,大沙东,113.45307490167339,23.10878855188412,BV10013815,地铁5号线(文冲--滘口),1
广州,大沙地,113.44060324232652,23.105774365230747,BV10014127,地铁5号线(文冲--滘口),1
广州,鱼珠,113.42676388023493,23.102957072844962,BV10024383,地铁5号线(文冲--滘口),1
广州,三溪,113.4102668837421,23.106606467538143,BV10024381,地铁5号线(文冲--滘口),1
广州,东圃,113.39603838449987,23.111894191938838,BV10018486,地铁5号线(文冲--滘口),1
广州,车陂南,113.38403942918157,23.118432941929484,BV10014566,地铁5号线(文冲--滘口),1
广州,科韵路,113.37170250538323,23.12179113770995,BV10014015,地铁5号线(文冲--滘口),1
广州,员村,113.35816774416095,23.118297106782776,BV10021812,地铁5号线(文冲--滘口),1
广州,潭村,113.34048392462469,23.119923174390667,BV10022843,地铁5号线(文冲--滘口),1
广州,猎德,113.32666733743234,23.121121394599808,BV10014669,地铁5号线(文冲--滘口),1
广州,珠江新城,113.31579068596793,23.121895847603593,BV10024361,地铁5号线(文冲--滘口),1
广州,五羊邨,113.30884773686743,23.122458603738906,BV10024380,地铁5号线(文冲--滘口),1
广州,杨箕,113.3023030648837,23.129908355871084,BV10024379,地铁5号线(文冲--滘口),1
广州,动物园,113.30190234249743,23.137125157585487,BV10014268,地铁5号线(文冲--滘口),1
广州,区庄,113.29135546184216,23.13712256662035,BV10018660,地铁5号线(文冲--滘口),1
广州,淘金,113.28119531452595,23.139018197723242,BV10024378,地铁5号线(文冲--滘口),1
广州,小北,113.27156345945089,23.14208691496481,BV10013928,地铁5号线(文冲--滘口),1
广州,广州火车站,113.24938879524828,23.150606739068152,BV10015177,地铁5号线(文冲--滘口),1
广州,西村,113.23669365746763,23.144686385061657,BV10024377,地铁5号线(文冲--滘口),1
广州,西场,113.23272980470611,23.140055762991786,BV10024376,地铁5号线(文冲--滘口),1
广州,中山八,113.2273990424555,23.12872243199042,BV10024375,地铁5号线(文冲--滘口),1
广州,坦尾,113.21304715337368,23.127898103723542,BV10024374,地铁5号线(文冲--滘口),1
广州,滘口,113.2030886912848,23.116452204055857,BV10024372,地铁5号线(文冲--滘口),1
广州,滘口,113.2030886912848,23.116452204055857,BV10024372,地铁5号线(滘口--文冲),2
广州,坦尾,113.21304715337368,23.127898103723542,BV10024374,地铁5号线(滘口--文冲),2
广州,中山八,113.2273990424555,23.12872243199042,BV10024375,地铁5号线(滘口--文冲),2
广州,西场,113.23272980470611,23.140055762991786,BV10024376,地铁5号线(滘口--文冲),2
广州,西村,113.23669365746763,23.144686385061657,BV10024377,地铁5号线(滘口--文冲),2
广州,广州火车站,113.24938879524828,23.150606739068152,BV10015177,地铁5号线(滘口--文冲),2
广州,小北,113.27156345945089,23.14208691496481,BV10013928,地铁5号线(滘口--文冲),2
广州,淘金,113.28119531452595,23.139018197723242,BV10024378,地铁5号线(滘口--文冲),2
广州,区庄,113.29135546184216,23.13712256662035,BV10018660,地铁5号线(滘口--文冲),2
广州,动物园,113.30190234249743,23.137125157585487,BV10014268,地铁5号线(滘口--文冲),2
广州,杨箕,113.3023030648837,23.129908355871084,BV10024379,地铁5号线(滘口--文冲),2
广州,五羊邨,113.30884773686743,23.122458603738906,BV10024380,地铁5号线(滘口--文冲),2
广州,珠江新城,113.31579068596793,23.121895847603593,BV10024361,地铁5号线(滘口--文冲),2
广州,猎德,113.32666733743234,23.121121394599808,BV10014669,地铁5号线(滘口--文冲),2
广州,潭村,113.34048392462469,23.119923174390667,BV10022843,地铁5号线(滘口--文冲),2
广州,员村,113.35816774416095,23.118297106782776,BV10021812,地铁5号线(滘口--文冲),2
广州,科韵路,113.37170250538323,23.12179113770995,BV10014015,地铁5号线(滘口--文冲),2
广州,车陂南,113.38403942918157,23.118432941929484,BV10014566,地铁5号线(滘口--文冲),2
广州,东圃,113.39603838449987,23.111894191938838,BV10018486,地铁5号线(滘口--文冲),2
广州,三溪,113.4102668837421,23.106606467538143,BV10024381,地铁5号线(滘口--文冲),2
广州,鱼珠,113.42676388023493,23.102957072844962,BV10024383,地铁5号线(滘口--文冲),2
广州,大沙地,113.44060324232652,23.105774365230747,BV10014127,地铁5号线(滘口--文冲),2
广州,大沙东,113.45307490167339,23.10878855188412,BV10013815,地铁5号线(滘口--文冲),2
广州,文冲,113.46359437959157,23.1063956315895,BV10021532,地铁5号线(滘口--文冲),2
广州,浔峰岗,113.19657685238381,23.166736624478187,BV10024411,地铁6号线(浔峰岗--香雪),1
广州,横沙,113.2014344077993,23.160823169841503,BV10015504,地铁6号线(浔峰岗--香雪),1
广州,沙贝,113.20604703246676,23.15507476737336,BV10024410,地铁6号线(浔峰岗--香雪),1
广州,河沙,113.21206338480648,23.13823483859435,BV10024409,地铁6号线(浔峰岗--香雪),1
广州,坦尾,113.21304715337368,23.127898103723542,BV10024374,地铁6号线(浔峰岗--香雪),1
广州,如意坊,113.22587986842095,23.117657920661337,BV10017769,地铁6号线(浔峰岗--香雪),1
广州,黄沙,113.23540254082832,23.11195019607692,BV10015729,地铁6号线(浔峰岗--香雪),1
广州,文化公园,113.24365339914657,23.111874775325237,BV10013728,地铁6号线(浔峰岗--香雪),1
广州,一德路,113.25187529353744,23.115722168806723,BV10024408,地铁6号线(浔峰岗--香雪),1
广州,海珠广场,113.26001471961038,23.117477928805613,BV10018597,地铁6号线(浔峰岗--香雪),1
广州,北京路,113.26499347807489,23.12143896517791,BV10024407,地铁6号线(浔峰岗--香雪),1
广州,团一大广场,113.27292433179637,23.120781124418944,BV10024406,地铁6号线(浔峰岗--香雪),1
广州,东湖,113.28322777588532,23.117761127357554,BV10024405,地铁6号线(浔峰岗--香雪),1
广州,东山口,113.29000644606928,23.126625851288647,BV10021603,地铁6号线(浔峰岗--香雪),1
广州,区庄,113.29146734351285,23.136052822104094,BV10018660,地铁6号线(浔峰岗--香雪),1
广州,黄花岗,113.29453149150602,23.143759913317616,BV10014266,地铁6号线(浔峰岗--香雪),1
广州,沙河顶,113.30157809568504,23.149893657703153,BV10014270,地铁6号线(浔峰岗--香雪),1
广州,沙河,113.30766292389453,23.154520976932517,BV10018546,地铁6号线(浔峰岗--香雪),1
广州,天平架,113.31593465613753,23.162111597841882,BV10013969,地铁6号线(浔峰岗--香雪),1
广州,燕塘,113.32170173970604,23.162555427638942,BV10024356,地铁6号线(浔峰岗--香雪),1
广州,天河客运站,113.33813577023417,23.17354025396807,BV10014278,地铁6号线(浔峰岗--香雪),1
广州,长湴,113.34395923760903,23.181029069726304,BV10014408,地铁6号线(浔峰岗--香雪),1
广州,植物园,113.36018271432472,23.192661340004594,BV10791947,地铁6号线(浔峰岗--香雪),1
广州,龙洞,113.37200227919541,23.19344302510432,BV10791941,地铁6号线(浔峰岗--香雪),1
广州,柯木塱,113.39046191748169,23.195932257405218,BV10791942,地铁6号线(浔峰岗--香雪),1
广州,高塘石,113.4048814002593,23.193528780078125,BV10791939,地铁6号线(浔峰岗--香雪),1
广州,黄陂,113.42823727051383,23.19087248596679,BV10791940,地铁6号线(浔峰岗--香雪),1
广州,金峰,113.4456065728603,23.18384248523297,BV10791945,地铁6号线(浔峰岗--香雪),1
广州,暹岗,113.45473696426438,23.17484625400529,BV10791946,地铁6号线(浔峰岗--香雪),1
广州,苏元,113.46306622734512,23.173541546848607,BV10593225,地铁6号线(浔峰岗--香雪),1
广州,萝岗,113.47591289277713,23.17774223997892,BV10791944,地铁6号线(浔峰岗--香雪),1
广州,香雪,113.49591802762481,23.17504754142928,BV10791943,地铁6号线(浔峰岗--香雪),1
广州,香雪,113.49591802762481,23.17504754142928,BV10791943,地铁6号线(香雪--浔峰岗),2
广州,萝岗,113.47591289277713,23.17774223997892,BV10791944,地铁6号线(香雪--浔峰岗),2
广州,苏元,113.46306622734512,23.173541546848607,BV10593225,地铁6号线(香雪--浔峰岗),2
广州,暹岗,113.45473696426438,23.17484625400529,BV10791946,地铁6号线(香雪--浔峰岗),2
广州,金峰,113.4456065728603,23.18384248523297,BV10791945,地铁6号线(香雪--浔峰岗),2
广州,黄陂,113.42823727051383,23.19087248596679,BV10791940,地铁6号线(香雪--浔峰岗),2
广州,高塘石,113.4048814002593,23.193528780078125,BV10791939,地铁6号线(香雪--浔峰岗),2
广州,柯木塱,113.39046191748169,23.195932257405218,BV10791942,地铁6号线(香雪--浔峰岗),2
广州,龙洞,113.37200227919541,23.19344302510432,BV10791941,地铁6号线(香雪--浔峰岗),2
广州,植物园,113.36018271432472,23.192661340004594,BV10791947,地铁6号线(香雪--浔峰岗),2
广州,长湴,113.34395923760903,23.181029069726304,BV10014408,地铁6号线(香雪--浔峰岗),2
广州,天河客运站,113.33813577023417,23.17354025396807,BV10014278,地铁6号线(香雪--浔峰岗),2
广州,燕塘,113.32170173970604,23.162555427638942,BV10024356,地铁6号线(香雪--浔峰岗),2
广州,天平架,113.31593465613753,23.162111597841882,BV10013969,地铁6号线(香雪--浔峰岗),2
广州,沙河,113.30766292389453,23.154520976932517,BV10018546,地铁6号线(香雪--浔峰岗),2
广州,沙河顶,113.30157809568504,23.149893657703153,BV10014270,地铁6号线(香雪--浔峰岗),2
广州,黄花岗,113.29453149150602,23.143759913317616,BV10014266,地铁6号线(香雪--浔峰岗),2
广州,区庄,113.29146734351285,23.136052822104094,BV10018660,地铁6号线(香雪--浔峰岗),2
广州,东山口,113.29000644606928,23.126625851288647,BV10021603,地铁6号线(香雪--浔峰岗),2
广州,东湖,113.28322777588532,23.117761127357554,BV10024405,地铁6号线(香雪--浔峰岗),2
广州,团一大广场,113.27292433179637,23.120781124418944,BV10024406,地铁6号线(香雪--浔峰岗),2
广州,北京路,113.26499347807489,23.12143896517791,BV10024407,地铁6号线(香雪--浔峰岗),2
广州,海珠广场,113.26001471961038,23.117477928805613,BV10018597,地铁6号线(香雪--浔峰岗),2
广州,一德路,113.25187529353744,23.115722168806723,BV10024408,地铁6号线(香雪--浔峰岗),2
广州,文化公园,113.24365339914657,23.111874775325237,BV10013728,地铁6号线(香雪--浔峰岗),2
广州,黄沙,113.23540254082832,23.11195019607692,BV10015729,地铁6号线(香雪--浔峰岗),2
广州,如意坊,113.22587986842095,23.117657920661337,BV10017769,地铁6号线(香雪--浔峰岗),2
广州,坦尾,113.21304715337368,23.127898103723542,BV10024374,地铁6号线(香雪--浔峰岗),2
广州,河沙,113.21206338480648,23.13823483859435,BV10024409,地铁6号线(香雪--浔峰岗),2
广州,沙贝,113.20604703246676,23.15507476737336,BV10024410,地铁6号线(香雪--浔峰岗),2
广州,横沙,113.2014344077993,23.160823169841503,BV10015504,地铁6号线(香雪--浔峰岗),2
广州,浔峰岗,113.19657685238381,23.166736624478187,BV10024411,地铁6号线(香雪--浔峰岗),2
广州,广州南站,113.26380120868411,22.991712992143004,BV10019725,地铁7号线(广州南站--大学城南),1
广州,石壁,113.27263099165447,22.996859081672547,BV10024412,地铁7号线(广州南站--大学城南),1
广州,谢村,113.29047364621434,22.993280726451168,BV10569461,地铁7号线(广州南站--大学城南),1
广州,钟村,113.31158225904468,22.989104237075804,BV10569458,地铁7号线(广州南站--大学城南),1
广州,汉溪长隆,113.32474772108503,22.99685886780737,BV10024359,地铁7号线(广州南站--大学城南),1
广州,南村万博,113.34209455797577,23.0073710833884,BV10569459,地铁7号线(广州南站--大学城南),1
广州,员岗,113.36014969127588,23.018530617355513,BV10569462,地铁7号线(广州南站--大学城南),1
广州,板桥,113.38262495196355,23.01939069837827,BV10569460,地铁7号线(广州南站--大学城南),1
广州,大学城南,113.39503785903588,23.04584311065821,BV10024365,地铁7号线(广州南站--大学城南),1
广州,大学城南,113.39503785903588,23.04584311065821,BV10024365,地铁7号线(大学城南--广州南站),2
广州,板桥,113.38262495196355,23.01939069837827,BV10569460,地铁7号线(大学城南--广州南站),2
广州,员岗,113.36014969127588,23.018530617355513,BV10569462,地铁7号线(大学城南--广州南站),2
广州,南村万博,113.34209455797577,23.0073710833884,BV10569459,地铁7号线(大学城南--广州南站),2
广州,汉溪长隆,113.32474772108503,22.99685886780737,BV10024359,地铁7号线(大学城南--广州南站),2
广州,钟村,113.31158225904468,22.989104237075804,BV10569458,地铁7号线(大学城南--广州南站),2
广州,谢村,113.29047364621434,22.993280726451168,BV10569461,地铁7号线(大学城南--广州南站),2
广州,石壁,113.27263099165447,22.996859081672547,BV10024412,地铁7号线(大学城南--广州南站),2
广州,广州南站,113.26380120868411,22.991712992143004,BV10019725,地铁7号线(大学城南--广州南站),2
广州,万胜围,113.37927850227527,23.10022545382646,BV10024362,地铁8号线(万胜围--滘心),1
广州,琶洲,113.36120157103082,23.1010480257528,BV10013860,地铁8号线(万胜围--滘心),1
广州,新港东,113.35152639367176,23.101268138782636,BV10024401,地铁8号线(万胜围--滘心),1
广州,磨碟沙,113.335830215734,23.10126232239593,BV10015269,地铁8号线(万胜围--滘心),1
广州,赤岗,113.32938329472161,23.09901833518032,BV10013677,地铁8号线(万胜围--滘心),1
广州,客村,113.31491903983192,23.098811007420853,BV10014653,地铁8号线(万胜围--滘心),1
广州,鹭江,113.30283121338934,23.09796753687291,BV10015717,地铁8号线(万胜围--滘心),1
广州,中大,113.28750269801118,23.094786666775153,BV10014717,地铁8号线(万胜围--滘心),1
广州,晓港,113.2765385703188,23.095742533789,BV10024400,地铁8号线(万胜围--滘心),1
广州,昌岗,113.27154675730607,23.093336848732434,BV10024399,地铁8号线(万胜围--滘心),1
广州,宝岗大道,113.2643692244579,23.088717974260504,BV10024398,地铁8号线(万胜围--滘心),1
广州,沙园,113.25525939095975,23.0913201176699,BV10018365,地铁8号线(万胜围--滘心),1
广州,凤凰新村,113.25067096083428,23.097399053217007,BV10014045,地铁8号线(万胜围--滘心),1
广州,同福西,113.24704946495238,23.104380755563625,BV11303317,地铁8号线(万胜围--滘心),1
广州,文化公园,113.24365339914657,23.111874775325237,BV10013728,地铁8号线(万胜围--滘心),1
广州,华林寺,113.24200887619776,23.12036119719106,BV10839969,地铁8号线(万胜围--滘心),1
广州,陈家祠,113.2414302480899,23.129587394173203,BV10015239,地铁8号线(万胜围--滘心),1
广州,彩虹桥,113.23998070364114,23.136478417429082,BV10839959,地铁8号线(万胜围--滘心),1
广州,西村,113.23600952460066,23.144329316167635,BV10024377,地铁8号线(万胜围--滘心),1
广州,鹅掌坦,113.23052061826664,23.159029234319917,BV10839966,地铁8号线(万胜围--滘心),1
广州,同德,113.22937559057908,23.166187848706077,BV10839961,地铁8号线(万胜围--滘心),1
广州,上步,113.23042959578359,23.173638581471835,BV10839962,地铁8号线(万胜围--滘心),1
广州,聚龙,113.23342210830268,23.18391013182123,BV11057721,地铁8号线(万胜围--滘心),1
广州,石潭,113.2356813427756,23.190499537496475,BV10839958,地铁8号线(万胜围--滘心),1
广州,小坪,113.23772293054031,23.20317052971172,BV10839968,地铁8号线(万胜围--滘心),1
广州,石井,113.22646478021242,23.21374454500198,BV10839963,地铁8号线(万胜围--滘心),1
广州,亭岗,113.21461726317438,23.2252452242321,BV10839965,地铁8号线(万胜围--滘心),1
广州,滘心,113.21163309491213,23.239509104744837,BV10839960,地铁8号线(万胜围--滘心),1
广州,滘心,113.21163309491213,23.239509104744837,BV10839960,地铁8号线(滘心--万胜围),2
广州,亭岗,113.21461726317438,23.2252452242321,BV10839965,地铁8号线(滘心--万胜围),2
广州,石井,113.22646478021242,23.21374454500198,BV10839963,地铁8号线(滘心--万胜围),2
广州,小坪,113.23772293054031,23.20317052971172,BV10839968,地铁8号线(滘心--万胜围),2
广州,石潭,113.2356813427756,23.190499537496475,BV10839958,地铁8号线(滘心--万胜围),2
广州,聚龙,113.23342210830268,23.18391013182123,BV11057721,地铁8号线(滘心--万胜围),2
广州,上步,113.23042959578359,23.173638581471835,BV10839962,地铁8号线(滘心--万胜围),2
广州,同德,113.22937559057908,23.166187848706077,BV10839961,地铁8号线(滘心--万胜围),2
广州,鹅掌坦,113.23052061826664,23.159029234319917,BV10839966,地铁8号线(滘心--万胜围),2
广州,西村,113.23600952460066,23.144329316167635,BV10024377,地铁8号线(滘心--万胜围),2
广州,彩虹桥,113.23998070364114,23.136478417429082,BV10839959,地铁8号线(滘心--万胜围),2
广州,陈家祠,113.2414302480899,23.129587394173203,BV10015239,地铁8号线(滘心--万胜围),2
广州,华林寺,113.24200887619776,23.12036119719106,BV10839969,地铁8号线(滘心--万胜围),2
广州,文化公园,113.24365339914657,23.111874775325237,BV10013728,地铁8号线(滘心--万胜围),2
广州,同福西,113.24704946495238,23.104380755563625,BV11303317,地铁8号线(滘心--万胜围),2
广州,凤凰新村,113.25067096083428,23.097399053217007,BV10014045,地铁8号线(滘心--万胜围),2
广州,沙园,113.25525939095975,23.0913201176699,BV10018365,地铁8号线(滘心--万胜围),2
广州,宝岗大道,113.2643692244579,23.088717974260504,BV10024398,地铁8号线(滘心--万胜围),2
广州,昌岗,113.27154675730607,23.093336848732434,BV10024399,地铁8号线(滘心--万胜围),2
广州,晓港,113.2765385703188,23.095742533789,BV10024400,地铁8号线(滘心--万胜围),2
广州,中大,113.28750269801118,23.094786666775153,BV10014717,地铁8号线(滘心--万胜围),2
广州,鹭江,113.30283121338934,23.09796753687291,BV10015717,地铁8号线(滘心--万胜围),2
广州,客村,113.31491903983192,23.098811007420853,BV10014653,地铁8号线(滘心--万胜围),2
广州,赤岗,113.32938329472161,23.09901833518032,BV10013677,地铁8号线(滘心--万胜围),2
广州,磨碟沙,113.335830215734,23.10126232239593,BV10015269,地铁8号线(滘心--万胜围),2
广州,新港东,113.35152639367176,23.101268138782636,BV10024401,地铁8号线(滘心--万胜围),2
广州,琶洲,113.36120157103082,23.1010480257528,BV10013860,地铁8号线(滘心--万胜围),2
广州,万胜围,113.37927850227527,23.10022545382646,BV10024362,地铁8号线(滘心--万胜围),2
广州,高增,113.29012157608364,23.357733296563513,BV10024350,地铁9号线(高增--飞鹅岭),1
广州,清塘,113.25751300479168,23.37480772356474,BV10710261,地铁9号线(高增--飞鹅岭),1
广州,清布,113.24564808368045,23.38072580475803,BV10571470,地铁9号线(高增--飞鹅岭),1
广州,莲塘,113.23980748556907,23.391702453591325,BV10571469,地铁9号线(高增--飞鹅岭),1
广州,马鞍山公园,113.23250204246736,23.40229639936018,BV10571473,地铁9号线(高增--飞鹅岭),1
广州,花都广场,113.21727380704631,23.40389316271071,BV10571472,地铁9号线(高增--飞鹅岭),1
广州,花果山公园,113.21303148659396,23.389703076599172,BV10571474,地铁9号线(高增--飞鹅岭),1
广州,花城路,113.20737639579765,23.382200639621548,BV10571480,地铁9号线(高增--飞鹅岭),1
广州,广州北站,113.19618891522009,23.378982283032613,BV10571477,地铁9号线(高增--飞鹅岭),1
广州,花都汽车城,113.17495109005424,23.382196789319053,BV10571478,地铁9号线(高增--飞鹅岭),1
广州,飞鹅岭,113.1496647216316,23.380823930373634,BV10571476,地铁9号线(高增--飞鹅岭),1
广州,飞鹅岭,113.1496647216316,23.380823930373634,BV10571476,地铁9号线(飞鹅岭--高增),2
广州,花都汽车城,113.17495109005424,23.382196789319053,BV10571478,地铁9号线(飞鹅岭--高增),2
广州,广州北站,113.19618891522009,23.378982283032613,BV10571477,地铁9号线(飞鹅岭--高增),2
广州,花城路,113.20737639579765,23.382200639621548,BV10571480,地铁9号线(飞鹅岭--高增),2
广州,花果山公园,113.21303148659396,23.389703076599172,BV10571474,地铁9号线(飞鹅岭--高增),2
广州,花都广场,113.21727380704631,23.40389316271071,BV10571472,地铁9号线(飞鹅岭--高增),2
广州,马鞍山公园,113.23250204246736,23.40229639936018,BV10571473,地铁9号线(飞鹅岭--高增),2
广州,莲塘,113.23980748556907,23.391702453591325,BV10571469,地铁9号线(飞鹅岭--高增),2
广州,清布,113.24564808368045,23.38072580475803,BV10571470,地铁9号线(飞鹅岭--高增),2
广州,清塘,113.25751300479168,23.37480772356474,BV10710261,地铁9号线(飞鹅岭--高增),2
广州,高增,113.29012157608364,23.357733296563513,BV10024350,地铁9号线(飞鹅岭--高增),2
广州,新沙,113.64430907914667,23.139673118892233,BV10827184,地铁13号线(新沙--鱼珠),1
广州,官湖,113.63147706254809,23.140056258415814,BV10827186,地铁13号线(新沙--鱼珠),1
广州,新塘,113.59939783871904,23.134592352289506,BV10827185,地铁13号线(新沙--鱼珠),1
广州,白江,113.5905507761912,23.126100649567796,BV10827182,地铁13号线(新沙--鱼珠),1
广州,沙村,113.56529603057015,23.113444132099104,BV10827183,地铁13号线(新沙--鱼珠),1
广州,南岗,113.53631772052026,23.09808818962362,BV10827178,地铁13号线(新沙--鱼珠),1
广州,夏园,113.51313570718827,23.085653422228,BV10827177,地铁13号线(新沙--鱼珠),1
广州,南海神庙,113.49212065108001,23.086407732952676,BV10827180,地铁13号线(新沙--鱼珠),1
广州,双岗,113.46893863790534,23.097085830560175,BV10827179,地铁13号线(新沙--鱼珠),1
广州,裕丰围,113.44956237236212,23.09750324978111,BV10827181,地铁13号线(新沙--鱼珠),1
广州,鱼珠,113.42676388023493,23.102957072844962,BV10024383,地铁13号线(新沙--鱼珠),1
广州,鱼珠,113.42676388023493,23.102957072844962,BV10024383,地铁13号线(鱼珠--新沙),2
广州,裕丰围,113.44956237236212,23.09750324978111,BV10827181,地铁13号线(鱼珠--新沙),2
广州,双岗,113.46893863790534,23.097085830560175,BV10827179,地铁13号线(鱼珠--新沙),2
广州,南海神庙,113.49212065108001,23.086407732952676,BV10827180,地铁13号线(鱼珠--新沙),2
广州,夏园,113.51313570718827,23.085653422228,BV10827177,地铁13号线(鱼珠--新沙),2
广州,南岗,113.53631772052026,23.09808818962362,BV10827178,地铁13号线(鱼珠--新沙),2
广州,沙村,113.56529603057015,23.113444132099104,BV10827183,地铁13号线(鱼珠--新沙),2
广州,白江,113.5905507761912,23.126100649567796,BV10827182,地铁13号线(鱼珠--新沙),2
广州,新塘,113.59939783871904,23.134592352289506,BV10827185,地铁13号线(鱼珠--新沙),2
广州,官湖,113.63147706254809,23.140056258415814,BV10827186,地铁13号线(鱼珠--新沙),2
广州,新沙,113.64430907914667,23.139673118892233,BV10827184,地铁13号线(鱼珠--新沙),2
广州,东风,113.59569746485198,23.56900621895519,BV10851524,地铁14号线(东风--嘉禾望岗),1
广州,从化客运站,113.58961731965628,23.534541220923092,BV10851522,地铁14号线(东风--嘉禾望岗),1
广州,赤草,113.5550556451089,23.503940365467926,BV10851516,地铁14号线(东风--嘉禾望岗),1
广州,神岗,113.51212604752592,23.477742315787683,BV10851519,地铁14号线(东风--嘉禾望岗),1
广州,太平,113.48659754095938,23.454657204616556,BV10851513,地铁14号线(东风--嘉禾望岗),1
广州,新和,113.46162336932234,23.415760543569263,BV10851528,地铁14号线(东风--嘉禾望岗),1
广州,马沥,113.44490731594658,23.396342668916656,BV10851525,地铁14号线(东风--嘉禾望岗),1
广州,钟落潭,113.39514396507958,23.37806679545278,BV10851527,地铁14号线(东风--嘉禾望岗),1
广州,竹料,113.36281417049858,23.350942509100737,BV10851521,地铁14号线(东风--嘉禾望岗),1
广州,太和,113.34171712124912,23.301775484822137,BV10851517,地铁14号线(东风--嘉禾望岗),1
广州,夏良,113.31807419385692,23.280245913419666,BV10851511,地铁14号线(东风--嘉禾望岗),1
广州,白云东平,113.31242359124946,23.25373072282844,BV10851523,地铁14号线(东风--嘉禾望岗),1
广州,嘉禾望岗,113.28359196694188,23.240049921109332,BV10024352,地铁14号线(东风--嘉禾望岗),1
广州,嘉禾望岗,113.28359196694188,23.240049921109332,BV10024352,地铁14号线(嘉禾望岗--东风),2
广州,白云东平,113.31242359124946,23.25373072282844,BV10851523,地铁14号线(嘉禾望岗--东风),2
广州,夏良,113.31807419385692,23.280245913419666,BV10851511,地铁14号线(嘉禾望岗--东风),2
广州,太和,113.34171712124912,23.301775484822137,BV10851517,地铁14号线(嘉禾望岗--东风),2
广州,竹料,113.36281417049858,23.350942509100737,BV10851521,地铁14号线(嘉禾望岗--东风),2
广州,钟落潭,113.39514396507958,23.37806679545278,BV10851527,地铁14号线(嘉禾望岗--东风),2
广州,马沥,113.44490731594658,23.396342668916656,BV10851525,地铁14号线(嘉禾望岗--东风),2
广州,新和,113.46162336932234,23.415760543569263,BV10851528,地铁14号线(嘉禾望岗--东风),2
广州,太平,113.48659754095938,23.454657204616556,BV10851513,地铁14号线(嘉禾望岗--东风),2
广州,神岗,113.51212604752592,23.477742315787683,BV10851519,地铁14号线(嘉禾望岗--东风),2
广州,赤草,113.5550556451089,23.503940365467926,BV10851516,地铁14号线(嘉禾望岗--东风),2
广州,从化客运站,113.58961731965628,23.534541220923092,BV10851522,地铁14号线(嘉禾望岗--东风),2
广州,东风,113.59569746485198,23.56900621895519,BV10851524,地铁14号线(嘉禾望岗--东风),2
广州,员村,113.35816774416095,23.118297106782776,BV10021812,地铁21号线(员村--增城广场),1
广州,天河公园,113.35738426101973,23.12784334860154,BV10593232,地铁21号线(员村--增城广场),1
广州,棠东,113.38422131181011,23.13341877223686,BV11095939,地铁21号线(员村--增城广场),1
广州,黄村,113.40175009778974,23.134307638311867,BV10014561,地铁21号线(员村--增城广场),1
广州,大观南路,113.40142210572607,23.14706348973842,BV11095936,地铁21号线(员村--增城广场),1
广州,天河智慧城,113.39765687475875,23.16575573464854,BV11095935,地铁21号线(员村--增城广场),1
广州,神舟路,113.42583097500773,23.16771393620852,BV11095937,地铁21号线(员村--增城广场),1
广州,科学城,113.44378227276624,23.168179665430177,BV11095938,地铁21号线(员村--增城广场),1
广州,苏元,113.46241131912535,23.17252822908365,BV10593225,地铁21号线(员村--增城广场),1
广州,水西,113.47411012982501,23.189549700172666,BV10593223,地铁21号线(员村--增城广场),1
广州,长平,113.48435514491678,23.21295804757997,BV11095940,地铁21号线(员村--增城广场),1
广州,金坑,113.52150337467775,23.252040890690445,BV11095934,地铁21号线(员村--增城广场),1
广州,镇龙西,113.56868444827948,23.28088574548359,BV10593221,地铁21号线(员村--增城广场),1
广州,镇龙,113.58791170056195,23.28732224926074,BV10593235,地铁21号线(员村--增城广场),1
广州,中新,113.60804594876524,23.2881064996292,BV10593236,地铁21号线(员村--增城广场),1
广州,坑贝,113.63749767259702,23.28154047473105,BV10593220,地铁21号线(员村--增城广场),1
广州,凤岗,113.66548491975837,23.278683062505756,BV10593229,地铁21号线(员村--增城广场),1
广州,朱村,113.69622201080809,23.274983660790568,BV10697442,地铁21号线(员村--增城广场),1
广州,山田,113.73932924362556,23.279053179896632,BV10593233,地铁21号线(员村--增城广场),1
广州,钟岗,113.78689525111709,23.28197209271196,BV10593222,地铁21号线(员村--增城广场),1
广州,增城广场,113.80937462511066,23.28071634148244,BV10593227,地铁21号线(员村--增城广场),1
广州,增城广场,113.80937462511066,23.28071634148244,BV10593227,地铁21号线(增城广场--员村),2
广州,钟岗,113.78689525111709,23.28197209271196,BV10593222,地铁21号线(增城广场--员村),2
广州,山田,113.73932924362556,23.279053179896632,BV10593233,地铁21号线(增城广场--员村),2
广州,朱村,113.69622201080809,23.274983660790568,BV10697442,地铁21号线(增城广场--员村),2
广州,凤岗,113.66548491975837,23.278683062505756,BV10593229,地铁21号线(增城广场--员村),2
广州,坑贝,113.63749767259702,23.28154047473105,BV10593220,地铁21号线(增城广场--员村),2
广州,中新,113.60804594876524,23.2881064996292,BV10593236,地铁21号线(增城广场--员村),2
广州,镇龙,113.58791170056195,23.28732224926074,BV10593235,地铁21号线(增城广场--员村),2
广州,镇龙西,113.56868444827948,23.28088574548359,BV10593221,地铁21号线(增城广场--员村),2
广州,金坑,113.52150337467775,23.252040890690445,BV11095934,地铁21号线(增城广场--员村),2
广州,长平,113.48435514491678,23.21295804757997,BV11095940,地铁21号线(增城广场--员村),2
广州,水西,113.47411012982501,23.189549700172666,BV10593223,地铁21号线(增城广场--员村),2
广州,苏元,113.46241131912535,23.17252822908365,BV10593225,地铁21号线(增城广场--员村),2
广州,科学城,113.44378227276624,23.168179665430177,BV11095938,地铁21号线(增城广场--员村),2
广州,神舟路,113.42583097500773,23.16771393620852,BV11095937,地铁21号线(增城广场--员村),2
广州,天河智慧城,113.39765687475875,23.16575573464854,BV11095935,地铁21号线(增城广场--员村),2
广州,大观南路,113.40142210572607,23.14706348973842,BV11095936,地铁21号线(增城广场--员村),2
广州,黄村,113.40175009778974,23.134307638311867,BV10014561,地铁21号线(增城广场--员村),2
广州,棠东,113.38422131181011,23.13341877223686,BV11095939,地铁21号线(增城广场--员村),2
广州,天河公园,113.35738426101973,23.12784334860154,BV10593232,地铁21号线(增城广场--员村),2
广州,员村,113.35816774416095,23.118297106782776,BV10021812,地铁21号线(增城广场--员村),2
广州,林和西,113.31852455169197,23.14411371772252,BV10024348,APM线(林和西--广州塔),1
广州,体育中心南,113.31888629859762,23.136871911900986,BV10024347,APM线(林和西--广州塔),1
广州,天河南,113.31905614537561,23.13397574862428,BV10017706,APM线(林和西--广州塔),1
广州,黄埔大道,113.31906741653329,23.12964746967377,BV10024346,APM线(林和西--广州塔),1
广州,妇儿中心,113.31913558194901,23.12514816032485,BV10024345,APM线(林和西--广州塔),1
广州,花城大道,113.31929547855852,23.121819208127047,BV10014656,APM线(林和西--广州塔),1
广州,大剧院,113.31903821869894,23.118735956926727,BV10024344,APM线(林和西--广州塔),1
广州,海心沙,113.31899062890469,23.114144927950413,BV10024343,APM线(林和西--广州塔),1
广州,广州塔,113.31819861226931,23.108978564956686,BV10015731,APM线(林和西--广州塔),1
广州,广州塔,113.31819861226931,23.108978564956686,BV10015731,APM线(广州塔--林和西),2
广州,海心沙,113.31899062890469,23.114144927950413,BV10024343,APM线(广州塔--林和西),2
广州,大剧院,113.31903821869894,23.118735956926727,BV10024344,APM线(广州塔--林和西),2
广州,花城大道,113.31929547855852,23.121819208127047,BV10014656,APM线(广州塔--林和西),2
广州,妇儿中心,113.31913558194901,23.12514816032485,BV10024345,APM线(广州塔--林和西),2
广州,黄埔大道,113.31906741653329,23.12964746967377,BV10024346,APM线(广州塔--林和西),2
广州,天河南,113.31905614537561,23.13397574862428,BV10017706,APM线(广州塔--林和西),2
广州,体育中心南,113.31888629859762,23.136871911900986,BV10024347,APM线(广州塔--林和西),2
广州,林和西,113.31852455169197,23.14411371772252,BV10024348,APM线(广州塔--林和西),2
广州,沥滘,113.31314746231013,23.057426836799156,BV10014515,广佛线(沥滘--新城东),1
广州,南洲,113.2920010597537,23.067466427465167,BV10024416,广佛线(沥滘--新城东),1
广州,石溪,113.28060276450337,23.070619227757096,BV10544498,广佛线(沥滘--新城东),1
广州,燕岗,113.26665587490166,23.07783577885366,BV10544499,广佛线(沥滘--新城东),1
广州,沙园,113.25526139065492,23.09130912146054,BV10018365,广佛线(沥滘--新城东),1
广州,沙涌,113.24145118080065,23.085827452694815,BV10544497,广佛线(沥滘--新城东),1
广州,鹤洞,113.23483184299059,23.075197349491283,BV10544496,广佛线(沥滘--新城东),1
广州,西塱,113.22665366084165,23.068138134411758,BV10024397,广佛线(沥滘--新城东),1
广州,菊树,113.20752070404419,23.06855015539592,BV10024396,广佛线(沥滘--新城东),1
广州,龙溪,113.18701788876078,23.068679817028876,BV10024395,广佛线(沥滘--新城东),1
广州,金融高新区,113.15311302496158,23.06840222897493,BV10257097,广佛线(沥滘--新城东),1
广州,千灯湖,113.14991614706231,23.057405150327217,BV10257096,广佛线(沥滘--新城东),1
广州,礌岗,113.14998709470413,23.045199506703227,BV10406303,广佛线(沥滘--新城东),1
广州,南桂路,113.14869843916121,23.036760846024382,BV10257094,广佛线(沥滘--新城东),1
广州,桂城,113.1359713193535,23.03424780640422,BV10257093,广佛线(沥滘--新城东),1
广州,朝安,113.12806599535419,23.030240207922795,BV10257092,广佛线(沥滘--新城东),1
广州,普君北路,113.11675734194415,23.03022917140959,BV10251582,广佛线(沥滘--新城东),1
广州,祖庙,113.10661009086016,23.029616510380308,BV10251455,广佛线(沥滘--新城东),1
广州,同济路,113.10301344608249,23.021767046163923,BV10251591,广佛线(沥滘--新城东),1
广州,季华园,113.1030552752374,23.009707275197194,BV10251422,广佛线(沥滘--新城东),1
广州,魁奇路,113.10312418738522,22.996520004097604,BV10257091,广佛线(沥滘--新城东),1
广州,澜石,113.10161953573837,22.986544684383464,BV10538989,广佛线(沥滘--新城东),1
广州,世纪莲,113.10943360932302,22.967719023921326,BV10538987,广佛线(沥滘--新城东),1
广州,东平,113.12371821024628,22.967851625888688,BV10538986,广佛线(沥滘--新城东),1
广州,新城东,113.13455021860692,22.961256115502827,BV10538988,广佛线(沥滘--新城东),1
广州,新城东,113.13455021860692,22.961256115502827,BV10538988,广佛线(新城东--沥滘),2
广州,东平,113.12371821024628,22.967851625888688,BV10538986,广佛线(新城东--沥滘),2
广州,世纪莲,113.10943360932302,22.967719023921326,BV10538987,广佛线(新城东--沥滘),2
广州,澜石,113.10161953573837,22.986544684383464,BV10538989,广佛线(新城东--沥滘),2
广州,魁奇路,113.10312418738522,22.996520004097604,BV10257091,广佛线(新城东--沥滘),2
广州,季华园,113.1030552752374,23.009707275197194,BV10251422,广佛线(新城东--沥滘),2
广州,同济路,113.10301344608249,23.021767046163923,BV10251591,广佛线(新城东--沥滘),2
广州,祖庙,113.10661009086016,23.029616510380308,BV10251455,广佛线(新城东--沥滘),2
广州,普君北路,113.11675734194415,23.03022917140959,BV10251582,广佛线(新城东--沥滘),2
广州,朝安,113.12806599535419,23.030240207922795,BV10257092,广佛线(新城东--沥滘),2
广州,桂城,113.1359713193535,23.03424780640422,BV10257093,广佛线(新城东--沥滘),2
广州,南桂路,113.14869843916121,23.036760846024382,BV10257094,广佛线(新城东--沥滘),2
广州,礌岗,113.14998709470413,23.045199506703227,BV10406303,广佛线(新城东--沥滘),2
广州,千灯湖,113.14991614706231,23.057405150327217,BV10257096,广佛线(新城东--沥滘),2
广州,金融高新区,113.15311302496158,23.06840222897493,BV10257097,广佛线(新城东--沥滘),2
广州,龙溪,113.18701788876078,23.068679817028876,BV10024395,广佛线(新城东--沥滘),2
广州,菊树,113.20752070404419,23.06855015539592,BV10024396,广佛线(新城东--沥滘),2
广州,西塱,113.22665366084165,23.068138134411758,BV10024397,广佛线(新城东--沥滘),2
广州,鹤洞,113.23483184299059,23.075197349491283,BV10544496,广佛线(新城东--沥滘),2
广州,沙涌,113.24145118080065,23.085827452694815,BV10544497,广佛线(新城东--沥滘),2
广州,沙园,113.25526139065492,23.09130912146054,BV10018365,广佛线(新城东--沥滘),2
广州,燕岗,113.26665587490166,23.07783577885366,BV10544499,广佛线(新城东--沥滘),2
广州,石溪,113.28060276450337,23.070619227757096,BV10544498,广佛线(新城东--沥滘),2
广州,南洲,113.2920010597537,23.067466427465167,BV10024416,广佛线(新城东--沥滘),2
广州,沥滘,113.31314746231013,23.057426836799156,BV10014515,广佛线(新城东--沥滘),2
广州,万胜围,113.38049868882231,23.100151629401434,BV11584481,海珠有轨电车(万胜围--广州塔),1
广州,琶洲塔,113.37129330428462,23.101640840301272,BV11386261,海珠有轨电车(万胜围--广州塔),1
广州,琶洲大桥南,113.36993935618247,23.10706000414263,BV11386246,海珠有轨电车(万胜围--广州塔),1
广州,会展东,113.36330732562286,23.106853864955053,BV10420820,海珠有轨电车(万胜围--广州塔),1
广州,会展中,113.35708115282928,23.106916347478496,BV10420823,海珠有轨电车(万胜围--广州塔),1
广州,会展西,113.35078723052118,23.10716687339708,BV10420825,海珠有轨电车(万胜围--广州塔),1
广州,南风,113.34322956627437,23.108233118581296,BV10420821,海珠有轨电车(万胜围--广州塔),1
广州,琶醍,113.33466191202682,23.110262760874644,BV10619943,海珠有轨电车(万胜围--广州塔),1
广州,猎德大桥南,113.33005417335097,23.110152451775594,BV10420824,海珠有轨电车(万胜围--广州塔),1
广州,广州塔东,113.32162447384874,23.110042580204162,BV10388653,海珠有轨电车(万胜围--广州塔),1
广州,广州塔,113.31680740636098,23.1099937944199,BV11386256,海珠有轨电车(万胜围--广州塔),1
广州,广州塔,113.31680341504064,23.109986804886315,BV11386256,海珠有轨电车(广州塔--万胜围),2
广州,广州塔东,113.32164742574274,23.11005353176573,BV10388653,海珠有轨电车(广州塔--万胜围),2
广州,猎德大桥南,113.33004020149652,23.110155476972913,BV10420824,海珠有轨电车(广州塔--万胜围),2
广州,琶醍,113.33454913105393,23.11033394105491,BV10619943,海珠有轨电车(广州塔--万胜围),2
广州,南风,113.34321259670018,23.108248142023722,BV10420821,海珠有轨电车(广州塔--万胜围),2
广州,会展西,113.35083614712353,23.107179789664244,BV10420825,海珠有轨电车(广州塔--万胜围),2
广州,会展中,113.357085146299,23.106923338789546,BV10420823,海珠有轨电车(广州塔--万胜围),2
广州,会展东,113.36332530304996,23.106837848627805,BV10420820,海珠有轨电车(广州塔--万胜围),2
广州,琶洲大桥南,113.3699453495203,23.107062996530466,BV11386246,海珠有轨电车(广州塔--万胜围),2
广州,琶洲塔,113.3713032934974,23.10164882682332,BV11386261,海珠有轨电车(广州塔--万胜围),2
广州,万胜围,113.38046670876206,23.100161646909186,BV11584481,海珠有轨电车(广州塔--万胜围),2
